,City,country,Lat,Lon,Max Temp,Humidity,Cloudiness,Wind Speed,Date
0,saint-pierre,RE,-21.3393,55.4781,77.0,73,90,21.85,1619490028
1,cape town,ZA,-33.9258,18.4232,63.0,94,90,3.44,1619489889
2,punta arenas,CL,-53.15,-70.9167,42.8,100,90,3.44,1619489651
3,hermanus,ZA,-34.4187,19.2345,61.0,88,98,2.66,1619489890
4,qaanaaq,GL,77.484,-69.3632,35.6,69,100,7.31,1619490404
5,kaitangata,NZ,-46.2817,169.8464,46.99,74,99,10.0,1619490404
6,gamba,GA,-2.65,10.0,77.41,90,99,4.99,1619490404
7,lodhikheda,IN,21.5833,78.8333,82.4,42,40,4.65,1619490405
8,abu dhabi,AE,24.4667,54.3667,84.2,28,0,3.44,1619490405
9,hobart,AU,-42.8794,147.3294,64.99,48,20,8.05,1619490405
10,zyryanka,RU,65.75,150.85,27.88,75,14,14.97,1619490405
11,la paz centro,NI,12.34,-86.6753,84.2,74,40,9.22,1619490406
12,sisimiut,GL,66.9395,-53.6735,33.69,99,100,6.51,1619490406
13,puerto ayora,EC,-0.7393,-90.3518,75.0,90,37,4.97,1619489892
14,kamina,CD,-8.7386,24.9906,65.17,93,100,2.8,1619490407
15,kavieng,PG,-2.5744,150.7967,83.57,70,51,3.65,1619489893
16,mahebourg,MU,-20.4081,57.7,77.0,88,75,8.05,1619489630
17,viking,CA,53.1001,-111.7684,50.0,23,91,10.36,1619490407
18,ciudad bolivar,VE,8.1222,-63.5497,85.82,51,97,14.03,1619490407
19,cabo san lucas,MX,22.8909,-109.9124,73.0,72,90,13.8,1619489837
20,saint-philippe,RE,-21.3585,55.7679,77.0,73,90,21.85,1619489893
21,vaini,TO,-21.2,-175.2,75.2,94,90,5.75,1619489894
22,nanortalik,GL,60.1432,-45.2371,34.12,93,80,10.04,1619489894
23,ponta do sol,PT,32.6667,-17.1,59.0,76,68,3.0,1619489894
24,mataura,NZ,-46.1927,168.8643,48.99,65,82,8.99,1619489895
25,sao jose da coroa grande,BR,-8.8978,-35.1478,77.67,81,46,6.15,1619489895
26,saint george,US,37.1041,-113.5841,57.0,54,1,11.5,1619489600
27,laguna,US,38.421,-121.4238,64.4,25,1,5.75,1619490409
28,santa fe,AR,-31.6333,-60.7,62.01,85,1,1.01,1619490409
29,busselton,AU,-33.65,115.3333,73.99,77,50,1.01,1619489896
30,ushuaia,AR,-54.8,-68.3,42.8,81,75,2.3,1619489896
31,lebu,CL,-37.6167,-73.65,53.38,88,26,9.53,1619489896
32,atambua,ID,-9.1061,124.8925,80.87,44,17,0.27,1619490221
33,guiratinga,BR,-16.3494,-53.7583,67.01,96,26,2.66,1619490410
34,marquette,US,46.5333,-87.6335,35.01,93,100,9.89,1619490147
35,askarovo,RU,53.3372,58.5089,37.4,60,20,8.95,1619490411
36,rikitea,PF,-23.1203,-134.9692,78.13,72,100,6.98,1619490374
37,kieta,PG,-6.2167,155.6333,85.21,71,81,3.11,1619489897
38,kapaa,US,22.0752,-159.319,77.0,65,20,8.05,1619489898
39,fuling,CN,29.7022,107.3919,68.07,80,92,2.08,1619490411
40,vila franca do campo,PT,37.7167,-25.4333,59.0,82,75,9.22,1619489898
41,bethel,US,41.3712,-73.414,50.0,32,1,4.41,1619489899
42,santa lucia,ES,27.9117,-15.5407,66.2,77,75,8.05,1619490324
43,zhob,PK,31.3411,69.4481,72.7,25,1,0.98,1619490412
44,vacaresti,RO,44.85,25.4833,50.0,71,0,10.36,1619490413
45,fort nelson,CA,58.8053,-122.7002,23.0,86,90,8.05,1619490413
46,petropavlovsk-kamchatskiy,RU,53.0452,158.6483,33.8,100,90,5.35,1619489899
47,mahibadhoo,MV,3.7833,72.9667,82.99,72,46,6.85,1619490192
48,bluff,NZ,-46.6,168.3333,48.99,65,85,8.99,1619489900
49,rayachoti,IN,14.05,78.75,81.39,67,2,4.29,1619490413
50,vardo,NO,70.3705,31.1107,32.97,57,98,16.13,1619489900
51,port blair,IN,11.6667,92.75,83.77,67,97,3.56,1619490414
52,faanui,PF,-16.4833,-151.75,81.25,68,69,4.88,1619489820
53,hovd,MN,48.0056,91.6419,41.02,22,20,1.61,1619490415
54,atuona,PF,-9.8,-139.0333,79.83,75,91,15.23,1619489901
55,zhanaozen,KZ,43.3,52.8,57.92,59,32,12.39,1619490416
56,jamestown,US,42.097,-79.2353,46.99,42,75,6.91,1619489901
57,grand-santi,GF,4.25,-54.3833,73.53,99,100,2.89,1619490417
58,dikson,RU,73.5069,80.5464,31.78,98,100,17.47,1619489902
59,oistins,BB,13.0667,-59.5333,78.8,65,40,14.97,1619490200
60,iqaluit,CA,63.7506,-68.5145,21.2,86,90,17.27,1619489902
61,norman wells,CA,65.282,-126.8329,17.6,35,75,3.44,1619489810
62,vila velha,BR,-20.3297,-40.2925,75.2,94,20,2.3,1619490336
63,miragoane,HT,18.4423,-73.0876,78.22,76,2,7.29,1619490417
64,tommot,RU,58.9564,126.2925,37.02,92,100,10.04,1619490418
65,laredo,US,27.5064,-99.5075,86.0,58,1,19.57,1619490156
66,arraial do cabo,BR,-22.9661,-42.0278,74.89,78,100,3.18,1619489903
67,puro,PH,12.4841,123.3827,83.03,67,43,8.97,1619490418
68,sao francisco,BR,-15.9486,-44.8644,76.42,57,81,1.72,1619490419
69,barrow,US,71.2906,-156.7887,21.2,68,1,17.27,1619489783
70,clyde river,CA,70.4692,-68.5914,24.8,100,90,2.3,1619489904
71,jacareacanga,BR,-6.2222,-57.7528,72.77,99,100,0.98,1619490420
72,matamoros,MX,25.5333,-103.25,89.6,8,75,13.06,1619489905
73,kodiak,US,57.79,-152.4072,42.8,87,90,17.27,1619489869
74,albany,US,42.6001,-73.9662,45.0,48,9,1.99,1619489804
75,nemuro,JP,43.3236,145.575,51.8,37,20,13.8,1619490132
76,asau,RO,46.4333,26.4,41.0,67,100,0.29,1619490368
77,inhambane,MZ,-23.865,35.3833,71.08,89,0,4.79,1619490421
78,fortuna,US,40.5982,-124.1573,55.0,62,1,11.5,1619489906
79,amahai,ID,-3.3333,128.9167,84.45,61,3,3.33,1619490421
80,port alfred,ZA,-33.5906,26.891,66.85,86,94,16.6,1619489906
81,hithadhoo,MV,-0.6,73.0833,82.47,61,4,2.95,1619489811
82,copperas cove,US,31.1241,-97.9031,77.0,53,75,14.97,1619490236
83,thiruvananthapuram,IN,8.4833,76.9167,84.2,79,20,2.3,1619490422
84,puerto suarez,BO,-18.95,-57.8,67.1,73,5,3.62,1619490422
85,ilam,NP,26.9167,87.9167,80.92,20,20,1.99,1619490423
86,alice springs,AU,-23.7,133.8833,73.99,25,0,14.97,1619489907
87,kyshtovka,RU,56.555,76.6271,45.37,66,0,8.01,1619490423
88,hualmay,PE,-11.0964,-77.6139,66.0,89,3,9.93,1619489908
89,narsaq,GL,60.9167,-46.05,35.6,93,75,5.75,1619489879
90,huarmey,PE,-10.0681,-78.1522,67.19,88,5,9.6,1619490424
91,teguldet,RU,57.3064,88.1667,42.4,86,100,9.95,1619490424
92,torbay,CA,47.6666,-52.7314,42.01,100,90,18.41,1619489908
93,kalmunai,LK,7.4167,81.8167,81.39,76,27,9.04,1619490425
94,upernavik,GL,72.7868,-56.1549,32.86,75,100,4.5,1619489824
95,hit,IQ,33.6416,42.8251,74.57,28,63,20.94,1619490425
96,kruisfontein,ZA,-34.0033,24.7314,63.0,87,64,1.01,1619489909
97,champerico,GT,14.3,-91.9167,71.01,96,6,3.47,1619490426
98,yellowknife,CA,62.456,-114.3525,8.6,52,20,14.97,1619489910
99,pemangkat,ID,1.1667,108.9667,82.85,74,15,2.8,1619490426
100,hami,CN,42.8,93.45,54.25,12,74,6.4,1619489910
101,chernyshevskiy,RU,63.0128,112.4714,19.58,63,41,8.7,1619490427
102,rawson,AR,-43.3002,-65.1023,63.09,43,48,6.06,1619490427
103,vaitape,PF,-16.5167,-151.75,81.21,68,65,4.92,1619490428
104,santiago del estero,AR,-27.7951,-64.2615,60.71,63,11,6.42,1619490428
105,georgetown,MY,5.4112,100.3354,79.0,89,20,2.3,1619489709
106,zhangye,CN,38.9342,100.4517,44.58,17,94,6.38,1619490429
107,cahul,MD,45.9075,28.1944,44.83,91,100,8.37,1619490429
108,mount gambier,AU,-37.8333,140.7667,59.0,72,90,5.75,1619490430
109,anadyr,RU,64.75,177.4833,32.0,93,20,6.71,1619490430
110,luau,AO,-10.7073,22.2247,64.33,90,98,3.51,1619490430
111,palmer,US,42.1584,-72.3287,46.4,39,20,12.66,1619490309
112,carnarvon,AU,-24.8667,113.6333,78.8,47,0,3.44,1619489912
113,salalah,OM,17.0151,54.0924,80.6,74,20,2.3,1619489912
114,ellisras,ZA,-23.6649,27.7443,56.35,31,0,3.78,1619490431
115,dancheng,CN,33.6333,115.1833,69.96,60,97,5.86,1619490432
116,ciranjang,ID,-6.7865,107.2832,78.01,69,29,3.0,1619490432
117,caibarien,CU,22.5206,-79.4669,77.0,88,20,4.61,1619490433
118,togur,RU,58.3631,82.8265,41.52,85,18,10.29,1619490433
119,sitka,US,57.0531,-135.33,50.0,66,75,5.57,1619489913
120,omsukchan,RU,62.5333,155.8,23.32,70,6,4.79,1619490433
121,oga,IT,46.4631,10.347,48.99,100,75,3.44,1619490434
122,kilindoni,TZ,-7.9139,39.6668,79.25,82,69,8.81,1619490434
123,viedma,AR,-40.8135,-62.9967,57.97,51,0,9.84,1619489914
124,taungdwingyi,MM,20.0167,95.55,88.18,50,2,9.48,1619490434
125,sao filipe,CV,14.8961,-24.4956,72.18,75,98,8.95,1619489914
126,ippy,CF,6.2679,21.2247,72.32,66,38,3.62,1619490435
127,bambous virieux,MU,-20.3428,57.7575,77.0,88,75,8.05,1619489915
128,lerwick,GB,60.1545,-1.1494,42.8,87,40,11.5,1619490435
129,san patricio,US,28.017,-97.5169,78.8,88,90,13.8,1619489878
130,saryagash,KZ,41.4511,69.1701,68.0,40,0,4.61,1619490436
131,sandnessjoen,NO,66.0217,12.6316,33.8,86,17,5.75,1619490436
132,north vanlaiphai,IN,23.1333,93.0667,77.74,34,1,0.76,1619490437
133,antigonish,CA,45.6169,-61.9986,46.0,90,100,3.0,1619490437
134,honiara,SB,-9.4333,159.95,84.99,75,96,3.96,1619489916
135,segovia,ES,41.1667,-4.0,48.99,91,28,3.76,1619490294
136,longyearbyen,SJ,78.2186,15.6401,19.4,63,40,16.11,1619489916
137,ribeira grande,PT,38.5167,-28.7,60.58,84,100,3.13,1619489917
138,bredasdorp,ZA,-34.5322,20.0403,55.4,94,98,1.14,1619489805
139,tuktoyaktuk,CA,69.4541,-133.0374,12.2,73,1,16.11,1619489917
140,san angelo,US,31.4638,-100.437,75.99,59,100,5.01,1619490438
141,ust-tsilma,RU,65.441,52.1498,37.27,98,100,4.14,1619490438
142,bontang,ID,0.1333,117.5,83.75,71,6,0.92,1619490398
143,emba,KZ,48.8264,58.1442,58.87,50,36,9.64,1619489918
144,chokurdakh,RU,70.6333,147.9167,26.71,83,97,2.28,1619489901
145,komsomolskiy,UZ,40.4272,71.7189,68.0,37,0,6.91,1619490439
146,soyo,AO,-6.1349,12.3689,79.05,90,100,6.49,1619490440
147,iquique,CL,-20.2208,-70.1431,62.6,77,0,4.61,1619490440
148,sao joao da barra,BR,-21.6403,-41.0511,72.99,93,16,9.78,1619489919
149,naco,MX,31.3347,-109.9483,68.0,22,1,13.8,1619490440
150,along,IN,28.1667,94.7667,81.37,37,82,1.48,1619490441
151,medea,DZ,36.2642,2.7539,57.2,88,40,5.75,1619490146
152,port macquarie,AU,-31.4333,152.9167,73.0,61,1,3.0,1619490441
153,mar del plata,AR,-38.0023,-57.5575,57.0,93,0,1.57,1619489875
154,castro,BR,-24.7911,-50.0119,56.34,91,2,3.02,1619489897
155,khomutovo,RU,52.4658,104.4025,39.2,81,40,13.42,1619490442
156,isangel,VU,-19.55,169.2667,82.4,65,40,9.22,1619489920
157,husavik,IS,66.0449,-17.3389,26.6,93,0,5.75,1619490442
158,derzhavinsk,KZ,51.1,66.3167,55.76,59,100,7.36,1619490443
159,geraldton,AU,-28.7667,114.6,78.8,29,25,5.75,1619489920
160,porto nacional,BR,-10.7081,-48.4172,75.2,100,0,3.44,1619490443
161,lompoc,US,34.6391,-120.4579,53.6,71,0,14.97,1619489628
162,pangoa,PE,-12.1167,-73.0,65.03,99,77,0.76,1619490444
163,ancud,CL,-41.8697,-73.8203,55.99,100,90,10.36,1619489921
164,marrakesh,MA,31.6315,-8.0083,60.8,72,75,5.75,1619490444
165,codrington,AU,-38.2667,141.9667,61.75,59,93,3.71,1619489921
166,tochio,JP,37.4667,139.0,63.0,35,8,1.01,1619490445
167,celestun,MX,20.8667,-90.4,81.09,75,0,15.52,1619489922
168,pevek,RU,69.7008,170.3133,26.06,93,100,4.14,1619489922
169,tiksi,RU,71.6872,128.8694,16.81,86,100,10.85,1619489923
170,victoria,HK,22.2855,114.1577,75.0,87,100,1.01,1619489826
171,riberalta,BO,-10.9833,-66.1,72.46,87,100,2.46,1619490446
172,lloydminster,CA,53.2835,-110.0016,46.4,36,75,11.5,1619490446
173,lagoa,PT,39.05,-27.9833,59.27,89,100,13.69,1619490447
174,rupert,US,42.6191,-113.6772,44.6,57,90,5.75,1619490447
175,riyadh,SA,24.6877,46.7219,75.2,22,0,9.31,1619489628
176,esna,EG,25.2934,32.554,69.8,46,0,4.61,1619489924
177,pacific grove,US,36.6177,-121.9166,55.4,62,40,12.66,1619489773
178,sarangani,PH,5.4033,125.4636,82.63,70,100,4.74,1619490448
179,saskylakh,RU,71.9167,114.0833,11.41,89,28,4.83,1619489925
180,hilo,US,19.7297,-155.09,78.8,61,40,9.22,1619489925
181,villagarzon,CO,1.0375,-76.6267,73.33,94,100,2.98,1619490448
182,rokytne,UA,51.2796,27.214,28.83,84,36,5.19,1619490449
183,klaksvik,FO,62.2266,-6.589,37.4,81,75,17.27,1619489925
184,east london,ZA,-33.0153,27.9116,67.96,77,82,7.05,1619489660
185,svetlogorsk,BY,52.6333,29.7333,29.08,87,57,6.31,1619489926
186,butaritari,KI,3.0707,172.7902,82.6,76,76,10.85,1619489926
187,saldanha,ZA,-33.0117,17.9442,60.8,94,10,5.75,1619489926
188,tabuk,PH,17.4189,121.4443,80.42,66,99,1.68,1619489927
189,cidreira,BR,-30.1811,-50.2056,62.22,78,1,9.6,1619489927
190,margate,GB,51.3813,1.3862,43.0,81,100,8.75,1619489927
191,nago,JP,26.5881,127.9761,75.2,53,40,14.97,1619490450
192,naryan-mar,RU,67.6713,53.087,34.43,98,100,8.81,1619490450
193,sundsvall,SE,62.3913,17.3063,26.6,86,20,5.75,1619490451
194,kasongo-lunda,CD,-6.4667,16.8167,69.76,96,100,1.23,1619490451
195,dicabisagan,PH,17.0818,122.4157,76.75,77,95,6.8,1619490451
196,zhigansk,RU,66.7697,123.3711,17.55,84,100,15.48,1619489928
197,bandarbeyla,SO,9.4942,50.8122,82.27,73,57,5.23,1619489929
198,walvis bay,NA,-22.9575,14.5053,61.0,94,42,4.61,1619490452
199,maragogi,BR,-9.0122,-35.2225,77.4,82,58,6.35,1619490239
200,grootfontein,NA,-19.5667,18.1167,58.28,45,1,2.77,1619490452
201,airai,TL,-8.9266,125.4092,72.41,39,48,1.97,1619489862
202,esmeraldas,BR,-19.7625,-44.3139,73.4,78,0,2.3,1619490453
203,avarua,CK,-21.2078,-159.775,82.4,69,75,3.44,1619489812
204,waipawa,NZ,-41.4122,175.5153,55.0,66,75,20.71,1619490453
205,faya,SA,18.3851,42.4509,57.2,82,0,2.53,1619489930
206,kaeo,NZ,-35.1,173.7833,70.0,62,78,1.99,1619490454
207,lorengau,PG,-2.0226,147.2712,85.62,67,29,3.13,1619489930
208,hun,LY,29.1268,15.9477,69.03,29,6,8.77,1619489931
209,tinskoy,RU,56.1525,96.9161,36.84,98,100,2.37,1619490455
210,coahuayana,MX,18.7333,-103.6833,74.01,75,100,2.08,1619489931
211,lasa,IT,46.6166,10.7002,52.0,100,90,4.61,1619490455
212,matagami,CA,49.7502,-77.6328,28.4,80,1,3.44,1619490455
213,chimoio,MZ,-19.1164,33.4833,66.2,100,75,1.97,1619490456
214,paamiut,GL,61.994,-49.6678,34.7,88,9,3.11,1619489932
215,loa janan,ID,-0.583,117.095,82.2,86,42,1.48,1619490456
216,richards bay,ZA,-28.783,32.0377,65.17,92,99,6.2,1619490456
217,sao raimundo das mangabeiras,BR,-7.0219,-45.4811,73.02,90,89,1.63,1619490457
218,trelew,AR,-43.249,-65.3051,62.8,37,59,4.12,1619490457
219,monrovia,LR,6.3005,-10.7969,79.88,83,51,5.3,1619489932
220,souillac,MU,-20.5167,57.5167,77.0,88,75,8.05,1619489933
221,pangnirtung,CA,66.1451,-65.7125,34.03,97,100,3.47,1619490457
222,meulaboh,ID,4.1363,96.1285,80.4,81,97,3.09,1619489933
223,liwale,TZ,-9.7667,37.9333,66.7,99,96,2.75,1619490458
224,agadir,MA,30.4202,-9.5982,59.0,94,20,3.44,1619490458
225,ponta delgada,PT,37.7333,-25.6667,59.0,82,75,9.22,1619490458
226,port hedland,AU,-20.3167,118.5667,89.6,13,0,17.27,1619490459
227,kutum,SD,14.2,24.6667,72.36,14,99,9.91,1619490459
228,pisco,PE,-13.7,-76.2167,64.99,88,0,9.22,1619489934
229,severo-kurilsk,RU,50.6789,156.125,32.18,98,100,16.98,1619489935
230,puerto lopez,CO,4.0845,-72.956,77.2,86,100,4.99,1619490460
231,poum,NC,-20.2333,164.0167,76.89,68,35,21.65,1619489935
232,acajutla,SV,13.5928,-89.8275,73.0,100,16,1.99,1619490460
233,port hawkesbury,CA,45.6169,-61.3485,43.0,93,90,2.3,1619490461
234,tasiilaq,GL,65.6145,-37.6368,41.0,60,40,7.74,1619489918
235,lavrentiya,RU,65.5833,-171.0,33.28,92,10,0.6,1619490461
236,naze,JP,28.3667,129.4833,73.4,53,20,10.36,1619489936
237,cherskiy,RU,68.75,161.3,25.21,76,51,6.58,1619489936
238,alta floresta,BR,-9.8756,-56.0861,73.4,100,0,2.3,1619489936
239,yamada,JP,39.4667,141.95,54.36,38,0,9.48,1619490462
240,havelock,US,34.8791,-76.9013,62.01,88,1,5.12,1619489937
241,katsuura,JP,35.1333,140.3,63.0,58,20,4.61,1619490462
242,ankazoabo,MG,-22.2833,44.5167,66.97,87,6,3.74,1619490463
243,gigmoto,PH,13.7796,124.39,78.93,79,100,10.29,1619490463
244,cam ranh,VN,11.9214,109.1591,87.8,66,20,6.91,1619490463
245,mustasaari,FI,63.1142,21.6822,34.0,93,0,1.14,1619490464
246,mishan,CN,45.55,131.8833,60.6,42,95,8.16,1619490464
247,dayong,CN,25.0209,118.2898,68.0,88,90,4.47,1619490464
248,provideniya,RU,64.3833,-173.3,39.2,65,0,5.28,1619489938
249,srivardhan,IN,18.0333,73.0167,82.42,77,18,1.1,1619489938
250,pameungpeuk,ID,-7.0183,107.6039,78.01,69,66,3.0,1619490465
251,araouane,ML,18.9048,-3.5265,87.93,14,22,10.65,1619490465
252,brokopondo,SR,4.75,-55.1667,75.2,93,100,7.61,1619490466
253,kudahuvadhoo,MV,2.6708,72.8944,82.62,73,73,5.39,1619489939
254,nara,JP,34.6851,135.8049,66.2,34,75,4.61,1619490466
255,hambantota,LK,6.1241,81.1185,82.4,94,20,2.3,1619490203
256,peniche,PT,39.3558,-9.3811,57.99,93,96,1.01,1619490466
257,barquisimeto,VE,10.0739,-69.3228,75.2,88,93,9.22,1619490467
258,poli,TZ,-3.3333,36.8,60.22,95,98,3.85,1619490467
259,okmulgee,US,35.6234,-95.9605,73.4,53,1,12.66,1619490467
260,bulgan,MN,48.8125,103.5347,39.42,35,4,15.48,1619490468
261,ugoofaaru,MV,5.6667,73.0,83.66,71,94,7.2,1619490468
262,kapuskasing,CA,49.4169,-82.4331,41.0,38,100,5.75,1619490469
263,guaymas,MX,27.9333,-110.9,73.4,64,75,14.97,1619490469
264,tepanguare,HN,14.3333,-87.75,80.6,61,75,6.91,1619490469
265,lishui,CN,28.4604,119.9103,63.05,84,100,0.58,1619490470
266,dumas,US,35.8656,-101.9732,75.99,11,1,16.11,1619490470
267,mayya,RU,61.7333,130.2811,35.6,80,75,4.47,1619489941
268,labuhan,ID,-6.8844,112.2051,82.67,74,33,6.26,1619489942
269,sola,VU,-13.8833,167.55,81.34,75,89,10.02,1619490471
270,talnakh,RU,69.4865,88.3972,16.59,78,62,10.31,1619489942
271,goderich,CA,43.7501,-81.7165,44.6,53,100,9.22,1619489922
272,marzuq,YE,14.4,46.4667,71.13,60,97,1.5,1619489942
273,new norfolk,AU,-42.7826,147.0587,64.99,72,19,1.99,1619489943
274,matiri,TZ,-10.75,34.9,61.65,94,99,3.51,1619490472
275,santana do ipanema,BR,-9.3783,-37.2453,71.35,94,24,5.26,1619490472
276,chuy,UY,-33.6971,-53.4616,53.47,81,0,7.38,1619489943
277,khatanga,RU,71.9667,102.5,23.34,91,100,18.14,1619489796
278,tessalit,ML,20.1986,1.0114,86.52,9,35,7.76,1619490472
279,puerto escondido,MX,15.85,-97.0667,82.2,76,25,5.88,1619490473
280,ayan,RU,56.45,138.1667,31.35,89,100,8.34,1619490473
281,angoram,PG,-4.0625,144.0661,89.6,61,61,0.83,1619490474
282,salinopolis,BR,-0.6136,-47.3561,78.98,84,97,7.56,1619490474
283,kavaratti,IN,10.5669,72.642,84.42,72,7,7.56,1619489944
284,monteria,CO,8.748,-75.8814,79.7,83,100,7.58,1619490475
285,farakka,IN,24.8167,87.9,93.11,9,51,5.95,1619490475
286,syracuse,IT,37.0881,15.2792,59.0,88,40,4.61,1619490294
287,najran,SA,17.4924,44.1277,68.0,88,40,4.61,1619489945
288,thompson,CA,55.7435,-97.8558,44.6,57,75,9.22,1619489945
289,pathein,MM,16.7833,94.7333,86.61,58,71,6.78,1619490476
290,coihaique,CL,-45.5752,-72.0662,53.6,82,75,10.36,1619489946
291,tullamore,IE,53.2739,-7.4889,46.99,80,61,1.99,1619490476
292,motygino,RU,58.1831,94.7592,39.63,81,68,3.44,1619490476
293,butajira,ET,8.1167,38.3667,57.0,95,100,2.68,1619490477
294,antofagasta,CL,-23.65,-70.4,60.8,67,0,1.14,1619489867
295,nizhnyaya tavda,RU,57.6731,66.1725,42.87,59,1,11.18,1619490477
296,port elizabeth,ZA,-33.918,25.5701,62.6,88,20,21.85,1619489801
297,balikpapan,ID,-1.2675,116.8289,80.96,83,72,4.65,1619490478
298,deputatskiy,RU,69.3,139.9,28.31,96,100,2.68,1619489947
299,tilichiki,RU,60.4667,166.1,30.99,99,100,1.14,1619489947
300,cayenne,GF,4.9333,-52.3333,75.99,100,75,4.61,1619489715
301,tutubigan,PH,11.8397,125.0614,84.88,61,66,4.72,1619490479
302,libertador general san martin,AR,-23.8064,-64.7876,64.99,81,91,1.01,1619490479
303,bedesa,ET,8.9,40.7833,60.08,92,100,0.85,1619490480
304,buala,SB,-8.145,159.5921,79.63,82,100,4.74,1619490480
305,berlevag,NO,70.8578,29.0864,30.81,64,100,11.5,1619490480
306,portland,US,45.5234,-122.6762,57.0,62,75,6.91,1619489926
307,umm kaddadah,SD,13.6017,26.6876,76.57,9,24,14.36,1619490481
308,fairbanks,US,64.8378,-147.7164,53.01,32,1,17.27,1619489894
309,seoul,KR,37.5683,126.9778,64.4,45,0,5.75,1619490328
310,katobu,ID,-4.9408,122.5276,86.77,59,38,4.16,1619490482
311,bathsheba,BB,13.2167,-59.5167,78.8,65,40,14.97,1619489949
312,yar-sale,RU,66.8333,70.8333,32.49,97,100,12.01,1619489949
313,bell ville,AR,-32.6259,-62.6887,53.01,90,0,3.0,1619490482
314,bardiyah,LY,31.7561,25.0865,58.41,78,0,5.44,1619490483
315,eenhana,NA,-17.4667,16.3333,60.8,63,10,3.44,1619490483
316,wellington,NZ,-41.2866,174.7756,54.0,66,75,20.71,1619490229
317,yulara,AU,-25.2406,130.9889,75.2,23,0,16.11,1619490483
318,dwarka,IN,22.2394,68.9678,80.87,72,0,9.1,1619490484
319,siderno,IT,38.2779,16.302,61.0,72,100,13.8,1619490484
320,huilong,CN,31.8111,121.655,64.99,94,100,4.0,1619489950
321,redmond,US,47.674,-122.1215,57.99,72,68,4.03,1619490208
322,grand gaube,MU,-20.0064,57.6608,75.0,84,100,5.01,1619490485
323,great falls,US,47.5002,-111.3008,53.6,35,1,9.22,1619490485
324,waldoboro,US,44.0954,-69.3756,39.99,60,1,9.22,1619490486
325,jahazpur,IN,25.6167,75.2833,86.38,6,0,7.2,1619490486
326,esperance,AU,-33.8667,121.9,82.4,21,100,20.71,1619489888
327,myitkyina,MM,25.3833,97.4,91.62,22,7,0.78,1619490487
328,te anau,NZ,-45.4167,167.7167,44.58,68,50,2.39,1619490487
329,rayevskiy,RU,54.0658,54.9468,40.93,72,100,4.03,1619490487
330,kocerin,BA,43.3897,17.485,55.4,62,75,3.44,1619490304
331,college,US,64.8569,-147.8028,53.01,37,20,20.71,1619489952
332,phetchabun,TH,16.25,101.0833,80.01,94,40,8.86,1619490488
333,touros,BR,-5.1989,-35.4608,77.0,83,20,3.44,1619489952
334,rosarito,MX,32.3333,-117.0333,59.0,72,40,10.36,1619490488
335,kapchorwa,UG,1.3965,34.4509,56.39,91,92,3.74,1619490489
336,poquoson,US,37.1224,-76.3458,57.0,76,1,3.44,1619490267
337,yining,CN,29.0361,114.5636,65.91,85,100,0.4,1619490489
338,horten,NO,59.4155,10.4853,34.0,93,9,2.3,1619490490
339,beringovskiy,RU,63.05,179.3167,33.35,94,83,3.22,1619490490
340,kinablangan,PH,7.6947,126.5503,80.76,80,97,5.06,1619490490
341,baijiantan,CN,45.6333,85.1833,57.92,22,51,3.51,1619490491
342,korla,CN,41.7597,86.1469,59.23,24,73,4.99,1619490491
343,yaypan,UZ,40.3758,70.8156,71.53,29,0,4.72,1619490492
344,kommunisticheskiy,RU,61.6789,64.4819,35.82,96,100,6.44,1619490492
345,grimshaw,CA,56.1834,-117.6027,28.4,74,90,17.27,1619490493
346,lima,PE,-12.0432,-77.0282,66.2,77,0,14.97,1619490290
347,tarauaca,BR,-8.1614,-70.7656,69.93,99,76,2.84,1619490493
348,taoudenni,ML,22.6783,-3.9836,88.38,14,9,10.38,1619489954
349,jambi,ID,-1.6,103.6167,82.72,75,31,3.04,1619490374
350,port arthur,CN,38.8,121.2667,55.4,88,90,13.42,1619490494
351,parkes,AU,-33.1333,148.1833,67.42,36,0,5.86,1619490494
352,leningradskiy,RU,69.3833,178.4167,31.95,86,93,3.89,1619489885
353,kahului,US,20.8947,-156.47,80.6,61,40,9.22,1619489955
354,santa cruz,BO,-17.8,-63.1667,62.6,82,0,4.61,1619490495
355,thinadhoo,MV,0.5333,72.9333,82.15,65,15,3.44,1619490495
356,brigantine,US,39.4101,-74.3646,52.0,46,1,3.44,1619489955
357,pontianak,ID,-0.0333,109.3333,84.2,79,20,2.19,1619490495
358,half moon bay,US,37.4636,-122.4286,55.0,76,1,14.97,1619490457
359,wanning,CN,18.8003,110.3967,81.0,78,100,6.42,1619489889
360,qurbus,TN,36.8167,10.5687,62.6,72,20,5.75,1619490496
361,oksfjord,NO,70.2396,22.3479,26.6,74,90,5.75,1619490496
362,nalut,LY,30.3333,10.85,77.36,22,2,11.83,1619490405
363,chengam,IN,12.3,78.8,81.01,79,26,2.89,1619490497
364,maracas,BR,-13.4411,-40.4308,62.33,92,10,4.25,1619490497
365,northam,GB,51.0333,-4.2167,43.0,90,27,1.99,1619489956
366,lincoln,US,40.8,-96.667,78.8,41,1,17.27,1619490354
367,yumen,CN,40.2833,97.2,45.73,15,95,1.52,1619489899
368,pokhara,NP,28.2333,83.9833,83.53,15,0,1.99,1619490499
369,opuwo,NA,-18.0607,13.84,61.34,61,5,2.33,1619490499
370,alofi,NU,-19.0595,-169.9187,84.2,79,73,11.5,1619489716
371,san andres,CO,12.5847,-81.7006,80.6,74,75,10.36,1619490500
372,mareeba,AU,-17.0,145.4333,80.01,73,90,16.11,1619490500
373,tupik,RU,54.4253,119.9327,37.45,84,100,8.81,1619490501
374,luderitz,NA,-26.6481,15.1594,59.47,83,28,7.96,1619489958
375,marsh harbour,BS,26.5412,-77.0636,74.12,72,6,20.76,1619490501
376,ilulissat,GL,69.2167,-51.1,39.2,65,20,5.75,1619489958
377,axim,GH,4.8699,-2.2405,80.29,87,100,6.46,1619490501
378,sur,OM,22.5667,59.5289,84.69,38,16,5.79,1619489832
379,samarai,PG,-10.6167,150.6667,82.83,73,80,9.08,1619490502
380,sungaipenuh,ID,-2.0833,101.3833,74.62,71,27,1.34,1619489959
381,rustenburg,ZA,-25.6676,27.2421,57.6,26,21,4.43,1619490502
382,sulangan,PH,11.1373,123.7228,80.91,68,17,7.4,1619490503
383,veraval,IN,20.9,70.3667,81.28,71,42,8.68,1619490503
384,ambilobe,MG,-13.2,49.05,70.11,94,11,3.42,1619490504
385,albert lea,US,43.648,-93.3683,55.99,62,1,13.8,1619490211
386,forestville,US,38.8451,-76.875,57.2,66,1,3.44,1619490504
387,antalaha,MG,-14.9003,50.2788,72.72,91,78,5.14,1619490216
388,flinders,AU,-34.5833,150.8552,73.99,61,2,4.0,1619489960
389,qaqortoq,GL,60.7167,-46.0333,35.6,93,75,5.75,1619489961
390,las vegas,US,36.175,-115.1372,66.2,30,75,19.57,1619490301
391,hirara,JP,24.8,125.2833,77.0,57,40,13.8,1619490505
392,mantua,IT,45.1667,10.7833,52.0,91,100,3.0,1619490505
393,monte escobedo,MX,22.3,-103.5833,64.76,28,92,8.84,1619490506
394,egvekinot,RU,66.3167,-179.1667,25.95,93,84,3.47,1619490506
395,nikolskoye,RU,59.7035,30.7861,39.2,81,75,6.71,1619489910
396,talavera de la reina,ES,39.9635,-4.8308,55.0,91,73,1.99,1619489962
397,kannur,IN,11.8675,75.3576,81.34,84,100,3.96,1619490507
398,vagur,FO,61.4732,-6.8119,40.93,74,100,24.49,1619490508
399,mayo,US,38.8876,-76.5119,54.0,66,1,3.6,1619489805
400,santa cruz cabralia,BR,-16.2781,-39.0247,75.2,78,0,5.75,1619490508
401,fernley,US,39.608,-119.2518,48.99,28,72,7.0,1619490509
402,kamenka,RU,51.3223,42.7678,41.0,94,100,9.51,1619490509
403,bengkulu,ID,-3.8004,102.2655,82.17,69,35,1.1,1619489962
404,qasigiannguit,GL,68.8193,-51.1922,39.2,65,20,5.75,1619490510
405,constitucion,CL,-35.3333,-72.4167,57.56,65,0,7.02,1619489963
406,guerrero negro,MX,27.9769,-114.0611,60.33,70,100,15.64,1619489927
407,nipawin,CA,53.3668,-104.0009,53.6,35,90,8.05,1619490510
408,takoradi,GH,4.8845,-1.7554,80.69,87,100,6.35,1619489964
409,chenzhou,CN,25.8,113.0333,61.61,95,100,3.42,1619490511
410,namibe,AO,-15.1961,12.1522,74.14,74,4,7.47,1619489965
411,saint anthony,US,45.0205,-93.218,48.0,87,90,8.05,1619489966
412,taksimo,RU,56.3444,114.8794,30.07,54,100,11.27,1619490512
413,shitanjing,CN,39.2342,106.3439,42.73,18,6,30.06,1619490512
414,panaba,MX,21.2833,-88.2667,80.53,63,24,13.87,1619490437
415,muli,MV,2.9167,73.5667,82.72,73,69,5.93,1619490512
416,greeneville,US,36.1632,-82.831,62.6,48,1,5.75,1619490513
417,tukan,RU,53.8409,57.4552,36.34,72,100,2.57,1619490513
418,rafaela,AR,-31.2503,-61.4867,57.99,55,0,3.49,1619490514
419,marovoay,MG,-16.1,46.6333,73.4,94,40,3.44,1619490515
420,beloha,MG,-25.1667,45.05,69.82,74,0,5.41,1619489887
421,cumana,VE,10.4635,-64.1775,78.8,89,75,17.27,1619490515
422,buchanan,LR,5.8808,-10.0467,79.86,82,23,4.59,1619489968
423,loma bonita,PA,8.3833,-80.1667,80.6,74,20,11.5,1619490516
424,santa maria,BR,-29.6842,-53.8069,51.8,100,0,1.14,1619490516
425,darlowo,PL,54.421,16.4107,37.69,78,16,8.75,1619490516
426,gravdal,NO,68.1214,13.5031,35.69,61,58,15.41,1619490517
427,medvezhyegorsk,RU,62.9167,34.4667,30.94,85,98,8.9,1619490517
428,obo,CF,5.3998,26.4869,68.41,95,100,3.31,1619490517
429,chifeng,CN,42.2683,118.9636,55.62,26,6,14.03,1619489969
430,noumea,NC,-22.2763,166.4572,78.8,57,75,17.27,1619489969
431,oktyabrskoye,RU,43.0645,44.7417,48.2,93,100,6.71,1619490518
432,vaike-maarja,EE,59.1264,26.25,35.87,98,100,5.79,1619490518
433,vernon,CA,50.2581,-119.2691,62.01,29,95,2.3,1619490519
434,doha,QA,25.2867,51.5333,81.0,65,95,3.44,1619490519
435,cedral,MX,23.8,-100.7333,72.01,44,99,3.98,1619490520
436,concepcion del oro,MX,24.6333,-101.4167,73.54,24,100,18.63,1619490520
437,pasighat,IN,28.0667,95.3333,87.22,27,39,1.07,1619490521
438,srandakan,ID,-7.9386,110.2506,83.46,70,90,8.01,1619490521
439,mayor pablo lagerenza,PY,-19.9309,-60.7718,62.98,63,0,6.02,1619490521
440,lichtenburg,ZA,-26.152,26.1597,53.89,27,11,4.07,1619490307
441,sembabule,UG,-0.0772,31.4567,60.46,96,50,1.59,1619490522
442,aksarka,RU,66.5606,67.7975,33.42,99,100,6.6,1619490522
443,tateyama,JP,34.9833,139.8667,62.6,59,20,4.61,1619490523
444,oum hadjer,TD,13.2954,19.6966,81.9,9,70,9.78,1619490523
445,chingirlau,KZ,51.095,54.0814,44.91,71,100,11.9,1619490523
446,santa isabel do rio negro,BR,-0.4139,-65.0192,74.17,96,100,2.64,1619490524
447,porto novo,BJ,6.4965,2.6036,84.2,84,40,11.5,1619489953
448,nakusp,CA,50.2499,-117.8023,59.0,31,28,1.14,1619490524
449,motril,ES,36.7507,-3.5179,57.99,81,48,1.01,1619490525
450,mogadishu,SO,2.0371,45.3438,82.2,76,27,6.85,1619490268
451,karachi,PK,24.9056,67.0822,80.6,83,0,5.75,1619490525
452,morrope,PE,-6.5417,-80.0111,69.01,88,14,3.0,1619490525
453,mount hagen,PG,-5.8581,144.2274,77.25,48,34,3.58,1619490526
454,itinga,BR,-16.6131,-41.7653,74.91,68,51,2.62,1619490526
455,agirish,RU,61.9247,63.0231,35.02,88,100,7.05,1619490526
456,la ronge,CA,55.1001,-105.2842,32.0,69,91,9.22,1619489972
457,burnie,AU,-41.0667,145.9167,63.0,55,21,8.99,1619490482
458,mandali,IQ,33.7499,45.5541,85.86,14,100,5.35,1619490527
459,ahipara,NZ,-35.1667,173.1667,63.88,73,77,10.11,1619490527
460,awbari,LY,26.5921,12.7805,81.68,20,79,15.64,1619490528
461,san carlos de bariloche,AR,-41.1456,-71.3082,48.99,56,0,5.75,1619490528
462,horconcitos,PA,8.4682,-81.8007,84.0,86,88,6.96,1619490528
463,benguela,AO,-12.5763,13.4055,78.42,75,51,4.54,1619489973
464,kidal,ML,18.4411,1.4078,85.91,22,3,6.73,1619490529
465,ravar,IR,31.2656,56.8055,70.93,34,5,1.88,1619490529
466,beitbridge,ZW,-22.2167,30.0,65.39,48,0,4.59,1619490529
467,muncar,ID,-8.4333,114.3333,83.23,69,41,9.22,1619490530
468,sarakhs,IR,36.5449,61.1577,64.4,32,0,6.29,1619490530
469,port lincoln,AU,-34.7333,135.8667,68.09,57,0,6.31,1619489974
470,nizhniy kuranakh,RU,58.8353,125.4869,34.43,97,100,10.98,1619490530
471,port huron,US,42.9709,-82.4249,44.01,28,90,9.22,1619490309
472,jiangyou,CN,31.7667,104.7167,69.69,59,79,4.76,1619490531
473,parakan,ID,-6.4191,106.0081,83.08,67,23,4.72,1619490532
474,sept-iles,CA,50.2001,-66.3821,41.0,93,90,16.11,1619490464
475,apatzingan,MX,19.0833,-102.35,88.52,26,97,3.96,1619490532
476,linxi,CN,39.7,118.4333,65.71,22,0,14.18,1619490533
477,tabriz,IR,38.08,46.2919,60.8,51,75,6.91,1619490533
478,tuy hoa,VN,13.0833,109.3,85.33,66,100,4.27,1619489975
479,isla vista,US,34.4133,-119.861,62.6,42,20,8.05,1619490533
480,bure,ET,10.7,37.0667,58.98,86,100,2.28,1619490534
481,bilibino,RU,68.0546,166.4372,26.28,80,100,4.0,1619490509
482,cairns,AU,-16.9167,145.7667,80.01,73,90,16.11,1619490534
483,trapani,IT,37.8333,12.6667,66.0,72,0,17.27,1619490535
484,aklavik,CA,68.2191,-135.0107,23.0,42,87,5.75,1619489862
485,aranos,NA,-24.1333,19.1167,63.23,34,38,0.65,1619490535
486,amapa,BR,1.0,-52.0,71.8,98,100,2.33,1619490536
487,metro,ID,-5.1131,105.3067,84.0,70,17,5.79,1619490448
488,hasaki,JP,35.7333,140.8333,66.0,51,75,6.91,1619489930
489,ballina,AU,-28.8667,153.5667,73.4,56,1,13.8,1619490536
490,morondava,MG,-20.2833,44.2833,76.84,75,86,6.78,1619490536
491,oxapampa,PE,-10.5775,-75.4017,58.84,99,89,0.76,1619490537
492,lipin bor,RU,60.2622,37.9763,35.42,99,100,3.67,1619490537
493,sibolga,ID,1.7427,98.7792,80.51,80,99,1.36,1619490538
494,shimanovsk,RU,52.0,127.7,53.28,42,100,15.88,1619490538
495,daru,PG,-9.0763,143.2092,84.78,71,71,3.85,1619490538
496,shihezi,CN,44.3,86.0333,59.94,24,80,5.59,1619490539
497,grants pass,US,42.439,-123.3284,55.99,50,1,8.05,1619490539
498,marshall,US,34.3834,-86.3333,66.2,55,1,5.75,1619490355
499,avera,US,33.194,-82.5271,64.4,72,1,5.3,1619490540
500,wainwright,CA,52.839,-110.8572,50.0,36,82,10.36,1619490540
501,plettenberg bay,ZA,-34.0527,23.3716,59.47,90,11,2.64,1619490541
502,jackson,US,42.4165,-122.8345,57.2,41,40,8.05,1619490400
503,durban,ZA,-29.8579,31.0292,66.0,94,0,2.3,1619490541
504,hofn,IS,64.2539,-15.2082,38.25,68,22,3.0,1619490542
505,la macarena,CO,2.1837,-73.7849,74.84,95,100,1.79,1619490542
506,grindavik,IS,63.8424,-22.4338,42.8,100,75,4.61,1619489980
507,avram iancu,RO,46.3833,22.7833,35.6,93,100,1.23,1619490542
508,bonavista,CA,48.6499,-53.1147,37.99,93,100,8.05,1619489980
509,aden,YE,12.7794,45.0367,79.9,79,100,9.06,1619490280
510,boa vista,BR,2.8197,-60.6733,77.0,83,75,6.91,1619490543
511,marystown,CA,47.1666,-55.1483,43.39,96,100,35.12,1619490544
512,sioux lookout,CA,50.1001,-91.917,35.6,75,90,6.91,1619490544
513,kysyl-syr,RU,63.8986,122.7617,19.9,78,100,10.85,1619490544
514,gasa,PS,31.5,34.4667,62.01,100,100,7.81,1619490291
515,sawakin,SD,19.1059,37.3321,81.55,72,0,1.83,1619490545
516,masunga,BW,-20.6246,27.4488,60.44,40,2,8.12,1619490545
517,parrita,CR,9.5201,-84.3225,71.6,78,0,9.22,1619490545
518,gazanjyk,TM,39.2446,55.5154,76.95,29,100,1.74,1619489982
519,bayreuth,DE,49.9481,11.5783,34.0,60,90,1.01,1619490546
520,yenagoa,NG,4.9247,6.2642,78.13,90,100,4.52,1619489982
521,tarakan,ID,3.3,117.6333,80.6,89,75,6.91,1619490305
522,bay roberts,CA,47.5999,-53.2648,44.01,92,100,7.0,1619490546
523,shasta lake,US,40.6804,-122.3708,63.0,38,37,3.04,1619490547
524,dingle,PH,10.9995,122.6711,86.27,57,33,10.42,1619489941
525,lakitelek,HU,46.876,19.995,46.99,70,0,4.61,1619490547
526,pinsk,BY,52.1229,26.0951,28.26,91,15,6.08,1619490548
527,koboko,UG,3.4136,30.9599,61.39,96,94,3.0,1619490548
528,willmar,US,45.1219,-95.0433,46.4,81,1,11.5,1619490399
529,sainte-maxime,FR,43.3,6.6333,59.0,82,100,2.3,1619490389
530,aqtobe,KZ,50.2797,57.2072,50.0,81,0,8.95,1619490549
531,nyurba,RU,63.2842,118.3319,21.78,65,100,10.38,1619490430
532,abalak,RU,58.1286,68.5944,41.7,57,4,8.57,1619490549
533,ongandjera,NA,-17.8833,15.0667,67.89,34,46,6.04,1619490550
534,padang,ID,-0.9492,100.3543,84.2,74,40,4.61,1619489984
535,kloulklubed,PW,7.0419,134.2556,82.4,78,90,13.8,1619490550
536,ascension,US,30.2169,-90.9001,73.4,78,1,3.44,1619490550
537,adrar,MR,20.5022,-10.0711,79.84,21,8,11.32,1619489985
538,mao,ES,39.8885,4.2658,55.4,88,20,8.05,1619490551
539,huntsville,US,34.7304,-86.5861,64.4,63,75,4.61,1619490362
540,kishtwar,IN,33.3167,75.7667,60.46,44,2,3.4,1619490551
541,sobolevo,RU,54.4299,31.8996,30.67,79,78,4.72,1619490552
542,igrim,RU,63.1906,64.4162,36.48,72,21,6.17,1619490552
543,gao,ML,16.6362,1.637,88.23,23,75,9.33,1619490553
544,tucuman,AR,-26.8241,-65.2226,66.2,82,75,1.21,1619490553
545,cap malheureux,MU,-19.9842,57.6142,75.0,85,100,5.99,1619489894
546,erzin,TR,36.9559,36.2,63.0,91,66,1.79,1619490554
547,acapulco,MX,16.8634,-99.8901,82.4,69,75,12.66,1619489822
548,brae,GB,60.3964,-1.353,42.8,87,40,11.5,1619490517
549,baft,IR,29.234,56.6057,58.24,26,27,2.46,1619490554
550,lypova dolyna,UA,50.5643,33.7979,30.97,90,100,6.64,1619490554
551,kadyy,RU,57.787,43.1903,26.53,97,8,2.48,1619490555
